var lidl = {"type":"FeatureCollection","crs":{"type":"name","properties":{"name":"urn:ogc:def:crs:OGC:1.3:CRS84"}},"features":[{"type":"Feature","properties":{"OBJECTID":30,"Id":0,"Type":"L","name":"Lidl Espoo"},"geometry":{"type":"Point","coordinates":[24.636501474641182,60.20775767512131]}},{"type":"Feature","properties":{"OBJECTID":31,"Id":0,"Type":"L","name":"Lidl Kauklathi"},"geometry":{"type":"Point","coordinates":[24.586440346165887,60.18815509443447]}},{"type":"Feature","properties":{"OBJECTID":32,"Id":0,"Type":"L","name":"Lidl Espoonlahdenkatu"},"geometry":{"type":"Point","coordinates":[24.655111105434546,60.149586686778306]}},{"type":"Feature","properties":{"OBJECTID":33,"Id":0,"Type":"L","name":"Lidl Martinniitty"},"geometry":{"type":"Point","coordinates":[24.692555203628512,60.15905478337736]}},{"type":"Feature","properties":{"OBJECTID":34,"Id":0,"Type":"L","name":"Lidl Niittykumpu"},"geometry":{"type":"Point","coordinates":[24.774740971948674,60.17063383349688]}},{"type":"Feature","properties":{"OBJECTID":35,"Id":0,"Type":"L","name":"Lidl Mankkaa"},"geometry":{"type":"Point","coordinates":[24.766655612415793,60.194894178840215]}},{"type":"Feature","properties":{"OBJECTID":36,"Id":0,"Type":"L","name":"Lidl Leppävaara"},"geometry":{"type":"Point","coordinates":[24.808482727895758,60.2185832525326]}},{"type":"Feature","properties":{"OBJECTID":37,"Id":0,"Type":"L","name":"Lidl Rastaspuisto"},"geometry":{"type":"Point","coordinates":[24.777964944112057,60.230343416095494]}}]}