var smarket = {"type":"FeatureCollection","crs":{"type":"name","properties":{"name":"urn:ogc:def:crs:OGC:1.3:CRS84"}},"features":[{"type":"Feature","properties":{"OBJECTID":2,"Id":0,"Type":"S","name":"Prisma Olari"},"geometry":{"type":"Point","coordinates":[24.734786297908485,60.1666176529148]}},{"type":"Feature","properties":{"OBJECTID":4,"Id":0,"Type":"S","name":"S-Market Pohjois-Tapiola"},"geometry":{"type":"Point","coordinates":[24.807526756005977,60.185573673239546]}},{"type":"Feature","properties":{"OBJECTID":5,"Id":0,"Type":"S","name":"S-Market Westend"},"geometry":{"type":"Point","coordinates":[24.7756566710733,60.16297975171716]}},{"type":"Feature","properties":{"OBJECTID":6,"Id":0,"Type":"S","name":"S-market Olari"},"geometry":{"type":"Point","coordinates":[24.726820764239616,60.17250934889815]}},{"type":"Feature","properties":{"OBJECTID":7,"Id":0,"Type":"S","name":"S-market Kivenlahdentie"},"geometry":{"type":"Point","coordinates":[24.658643443337514,60.15280176795898]}},{"type":"Feature","properties":{"OBJECTID":8,"Id":0,"Type":"S","name":"S-market Saunalahti"},"geometry":{"type":"Point","coordinates":[24.615741138131167,60.16801995557175]}},{"type":"Feature","properties":{"OBJECTID":9,"Id":0,"Type":"S","name":"S-market Malminmäki"},"geometry":{"type":"Point","coordinates":[24.678672558523775,60.18098193559289]}},{"type":"Feature","properties":{"OBJECTID":10,"Id":0,"Type":"S","name":"S-Market Espoo Keskus"},"geometry":{"type":"Point","coordinates":[24.66047325721918,60.203844422814164]}},{"type":"Feature","properties":{"OBJECTID":11,"Id":0,"Type":"S","name":"S-Market Etelä-Kauniainen"},"geometry":{"type":"Point","coordinates":[24.729252134704268,60.21008707959776]}},{"type":"Feature","properties":{"OBJECTID":12,"Id":0,"Type":"S","name":"S-Market Pohjois Kauniainen"},"geometry":{"type":"Point","coordinates":[24.727483805058927,60.212659202621026]}},{"type":"Feature","properties":{"OBJECTID":13,"Id":0,"Type":"S","name":"Alepa ABC Nihtisilta"},"geometry":{"type":"Point","coordinates":[24.753370678187537,60.209744535393405]}},{"type":"Feature","properties":{"OBJECTID":14,"Id":0,"Type":"S","name":"S-Market Karaportti"},"geometry":{"type":"Point","coordinates":[24.7601835225608,60.22447633500644]}},{"type":"Feature","properties":{"OBJECTID":15,"Id":0,"Type":"S","name":"S-Market Lähderanta"},"geometry":{"type":"Point","coordinates":[24.74070389266755,60.24091728631499]}},{"type":"Feature","properties":{"OBJECTID":16,"Id":0,"Type":"S","name":"S-Market Juvankartano"},"geometry":{"type":"Point","coordinates":[24.758781208073234,60.269543424507376]}},{"type":"Feature","properties":{"OBJECTID":17,"Id":0,"Type":"S","name":"Alepa Otaniemi"},"geometry":{"type":"Point","coordinates":[24.830734708431756,60.184157055448374]}},{"type":"Feature","properties":{"OBJECTID":18,"Id":0,"Type":"S","name":"Alepa Matinkylä"},"geometry":{"type":"Point","coordinates":[24.739910924834838,60.15770863055875]}},{"type":"Feature","properties":{"OBJECTID":19,"Id":0,"Type":"S","name":"Alepa Soukanpohja"},"geometry":{"type":"Point","coordinates":[24.673047039633232,60.13767397653535]}},{"type":"Feature","properties":{"OBJECTID":20,"Id":0,"Type":"S","name":"Alepa Kivenlahti"},"geometry":{"type":"Point","coordinates":[24.636543557499863,60.15391365903754]}},{"type":"Feature","properties":{"OBJECTID":21,"Id":0,"Type":"S","name":"Alepa Suvela"},"geometry":{"type":"Point","coordinates":[24.669903675221914,60.20053071583122]}},{"type":"Feature","properties":{"OBJECTID":22,"Id":0,"Type":"S","name":"Alepa Kirstintie"},"geometry":{"type":"Point","coordinates":[24.6739282070556,60.2048336768077]}},{"type":"Feature","properties":{"OBJECTID":24,"Id":0,"Type":"S","name":"Alepa Laajalathi"},"geometry":{"type":"Point","coordinates":[24.804646249576322,60.204027008446815]}},{"type":"Feature","properties":{"OBJECTID":25,"Id":0,"Type":"S","name":"Alepa Kilo"},"geometry":{"type":"Point","coordinates":[24.780453948041547,60.21859675796683]}},{"type":"Feature","properties":{"OBJECTID":26,"Id":0,"Type":"S","name":"Alepa Leppävaara"},"geometry":{"type":"Point","coordinates":[24.81287315426743,60.220481976849214]}},{"type":"Feature","properties":{"OBJECTID":27,"Id":0,"Type":"S","name":"Alepa Lintuvaara"},"geometry":{"type":"Point","coordinates":[24.814175014822567,60.234506261025906]}},{"type":"Feature","properties":{"OBJECTID":28,"Id":0,"Type":"S","name":"Alepa Karakallio"},"geometry":{"type":"Point","coordinates":[24.764716805896697,60.22913274172393]}},{"type":"Feature","properties":{"OBJECTID":29,"Id":0,"Type":"S","name":"Alepa Viherlaakso"},"geometry":{"type":"Point","coordinates":[24.740021331226288,60.22691249567199]}}]}